[
  {
    "business_status": "OPERATIONAL",
    "geometry": {
      "location": {
        "lat": 48.87645699999999,
        "lng": 2.344879
      },
      "viewport": {
        "northeast": {
          "lat": 48.8778648302915,
          "lng": 2.346225680291501
        },
        "southwest": {
          "lat": 48.8751668697085,
          "lng": 2.343527719708498
        }
      }
    },
    "icon": "https://maps.gstatic.com/mapfiles/place_api/icons/restaurant-71.png",
    "name": "Mi Ranchito Paisa",
    "opening_hours": {
      "open_now": true
    },
    "photos": [
      {
        "height": 3840,
        "html_attributions": [
          "\u003ca href=\"https://maps.google.com/maps/contrib/117570001380335242066\"\u003eMi Ranchito Paisa\u003c/a\u003e"
        ],
        "photo_reference": "CmRaAAAACJarPocGYUJq8phEIQMUgnFzdST_9ko8I_cuIuAO5tajRSxumGn42QunbWlWUURo08jJgCQ17wo3Jwd7dMzQvWJ4rQY1ttJRpCoB8o-73aXIan-JwQTeqrLnGfqjKl1wEhCuwZYvKhyIFGWZu236R-g5GhR7ThekMd7CR_XeT1Qz0fRDyhiDwA",
        "width": 5760
      }
    ],
    "place_id": "ChIJidCwC0Bu5kcRhyADcTSSsrY",
    "plus_code": {
      "compound_code": "V8GV+HX Paris, France",
      "global_code": "8FW4V8GV+HX"
    },
    "price_level": 2,
    "rating": 4.5,
    "reference": "ChIJidCwC0Bu5kcRhyADcTSSsrY",
    "scope": "GOOGLE",
    "types": [
      "restaurant",
      "food",
      "point_of_interest",
      "establishment"
    ],
    "user_ratings_total": 1295,
    "vicinity": "35 Rue de Montholon, Paris"
  },
  {
    "business_status": "OPERATIONAL",
    "geometry": {
      "location": {
        "lat": 48.8762778,
        "lng": 2.3472389
      },
      "viewport": {
        "northeast": {
          "lat": 48.8776197302915,
          "lng": 2.348579030291502
        },
        "southwest": {
          "lat": 48.8749217697085,
          "lng": 2.345881069708498
        }
      }
    },
    "icon": "https://maps.gstatic.com/mapfiles/place_api/icons/restaurant-71.png",
    "name": "Hugo",
    "opening_hours": {
      "open_now": true
    },
    "photos": [
      {
        "height": 540,
        "html_attributions": [
          "\u003ca href=\"https://maps.google.com/maps/contrib/104512095282728295534\"\u003eHugo\u003c/a\u003e"
        ],
        "photo_reference": "CmRaAAAAwi9Jvn0L0Yoq1aNRBKlc7QZf7xE-uXH0yEnh-d5PYlQjOWn6RGVJV5ybdlRDgVPXFZNuw9j-Ip-eb6PE1mSndzZQxAydPKuuyW1K6ocJPmPUmMm3gRoGNBlVMsmhaiMBEhDj6Q0uI0dk-xiRVKJSgeJlGhT8DeUFhytW6bfmupiq-2MJDWtcXw",
        "width": 960
      }
    ],
    "place_id": "ChIJw0QnSxVu5kcRYvvj231mXv8",
    "plus_code": {
      "compound_code": "V8GW+GV Paris, France",
      "global_code": "8FW4V8GW+GV"
    },
    "price_level": 2,
    "rating": 4.5,
    "reference": "ChIJw0QnSxVu5kcRYvvj231mXv8",
    "scope": "GOOGLE",
    "types": [
      "bar",
      "restaurant",
      "food",
      "point_of_interest",
      "establishment"
    ],
    "user_ratings_total": 401,
    "vicinity": "12 Rue Papillon, Paris"
  },
  {
    "business_status": "OPERATIONAL",
    "geometry": {
      "location": {
        "lat": 48.876238,
        "lng": 2.345903
      },
      "viewport": {
        "northeast": {
          "lat": 48.8776508802915,
          "lng": 2.347211180291502
        },
        "southwest": {
          "lat": 48.87495291970851,
          "lng": 2.344513219708498
        }
      }
    },
    "icon": "https://maps.gstatic.com/mapfiles/place_api/icons/restaurant-71.png",
    "name": "Veggie Tasty",
    "opening_hours": {
      "open_now": true
    },
    "photos": [
      {
        "height": 2359,
        "html_attributions": [
          "\u003ca href=\"https://maps.google.com/maps/contrib/107035275074451086448\"\u003eVeggie Tasty\u003c/a\u003e"
        ],
        "photo_reference": "CmRaAAAAFR18I6K-QEXiYuBl3MaACeZpKKmX5L39lqJ7sY-RIWqYHTC0XRjZOCtphvDDZlLOhmC5VX-yIYIdmja99q8LaEyVwjoEKbbkK3AAdUNde6kqsGtLwBmwHqFg6lQq3TbmEhAl9vmbL76osd6Ux5okGfcLGhTYpng9eNO1Bg3INA7avVYDin5CWA",
        "width": 4192
      }
    ],
    "place_id": "ChIJOd3F_j9u5kcR58fp0EX2S2c",
    "plus_code": {
      "compound_code": "V8GW+F9 Paris, France",
      "global_code": "8FW4V8GW+F9"
    },
    "price_level": 1,
    "rating": 4.8,
    "reference": "ChIJOd3F_j9u5kcR58fp0EX2S2c",
    "scope": "GOOGLE",
    "types": [
      "restaurant",
      "food",
      "point_of_interest",
      "establishment"
    ],
    "user_ratings_total": 295,
    "vicinity": "78 Rue la Fayette, Paris"
  }
]
